[
    {
        "type": "Feature",
        "properties": {
            "name": "臺北市松山區健康服務中心",
            "addr": "臺北市松山區八德路4段692號2樓"
        },
        "geometry": {
            "type": "Point",
            "coordinates": [
                121.5493,
                25.048161
            ]
        }
    },
    {
        "type": "Feature",
        "properties": {
            "name": "內政部營建署",
            "addr": "臺北市松山區八德路2段342號1樓"
        },
        "geometry": {
            "type": "Point",
            "coordinates": [
                121.549368,
                25.047914
            ]
        }
    },
    {
        "type": "Feature",
        "properties": {
            "name": "交通部運輸研究所",
            "addr": "臺北市松山區敦化北路240號"
        },
        "geometry": {
            "type": "Point",
            "coordinates": [
                121.549402,
                25.060165
            ]
        }
    },
    {
        "type": "Feature",
        "properties": {
            "name": "交通部公路總局臺北市區監理所",
            "addr": "臺北市松山區八德路4段21號"
        },
        "geometry": {
            "type": "Point",
            "coordinates": [
                121.5493,
                25.048161
            ]
        }
    },
    {
        "type": "Feature",
        "properties": {
            "name": "臺北自來水事業處東區營業分處",
            "addr": "臺北市松山區光復北路266號"
        },
        "geometry": {
            "type": "Point",
            "coordinates": [
                121.555493,
                25.056905
            ]
        }
    },
    {
        "type": "Feature",
        "properties": {
            "name": "三軍總醫院松山分院附設民眾診療服務處",
            "addr": "臺北市松山區健康路131號5樓"
        },
        "geometry": {
            "type": "Point",
            "coordinates": [
                121.557649,
                25.054355
            ]
        }
    },
    {
        "type": "Feature",
        "properties": {
            "name": "長庚醫療財團法人台北長庚紀念醫院",
            "addr": "臺北市松山區敦化北路199號"
        },
        "geometry": {
            "type": "Point",
            "coordinates": [
                121.549584,
                25.055385
            ]
        }
    },
    {
        "type": "Feature",
        "properties": {
            "name": "基督復臨安息日會醫療財團法人臺安醫院",
            "addr": "臺北市松山區八德路2段424號"
        },
        "geometry": {
            "type": "Point",
            "coordinates": [
                121.549368,
                25.047914
            ]
        }
    },
    {
        "type": "Feature",
        "properties": {
            "name": "博仁綜合醫院",
            "addr": "臺北市松山區光復北路66號"
        },
        "geometry": {
            "type": "Point",
            "coordinates": [
                121.557608,
                25.049979
            ]
        }
    },
    {
        "type": "Feature",
        "properties": {
            "name": "臺北大眾捷運股份有限公司（臺北小巨蛋）",
            "addr": "臺北市松山區南京東路4段2號"
        },
        "geometry": {
            "type": "Point",
            "coordinates": [
                121.549716,
                25.051648
            ]
        }
    },
    {
        "type": "Feature",
        "properties": {
            "name": "微風廣場實業股份有限公司",
            "addr": "臺北市松山區復興南路1段39號"
        },
        "geometry": {
            "type": "Point",
            "coordinates": [
                121.544254,
                25.045439
            ]
        }
    },
    {
        "type": "Feature",
        "properties": {
            "name": "家福股份有限公司三民分公司",
            "addr": "臺北市松山區三民路160號"
        },
        "geometry": {
            "type": "Point",
            "coordinates": [
                121.563113,
                25.061345
            ]
        }
    },
    {
        "type": "Feature",
        "properties": {
            "name": "臺北偶戲館",
            "addr": "臺北市松山區市民大道5段99號"
        },
        "geometry": {
            "type": "Point",
            "coordinates": [
                121.5790231,
                25.049546
            ]
        }
    },
    {
        "type": "Feature",
        "properties": {
            "name": "臺北市政府體育局（臺北體育館）",
            "addr": "臺北市松山區南京東路4段10號"
        },
        "geometry": {
            "type": "Point",
            "coordinates": [
                121.549716,
                25.051648
            ]
        }
    },
    {
        "type": "Feature",
        "properties": {
            "name": "食祿軒餐廳股份有限公司慶城分公司",
            "addr": "臺北市松山區復興北路99號"
        },
        "geometry": {
            "type": "Point",
            "coordinates": [
                121.544527,
                25.052931
            ]
        }
    },
    {
        "type": "Feature",
        "properties": {
            "name": "臺北市立圖書館三民分館",
            "addr": "臺北市松山區民生東路5段163之1號5樓"
        },
        "geometry": {
            "type": "Point",
            "coordinates": [
                121.555738,
                25.058267
            ]
        }
    },
    {
        "type": "Feature",
        "properties": {
            "name": "臺北市東區單親家庭服務中心",
            "addr": "臺北市松山區南京東路5段251巷46弄5號"
        },
        "geometry": {
            "type": "Point",
            "coordinates": [
                121.563826,
                25.051487
            ]
        }
    },
    {
        "type": "Feature",
        "properties": {
            "name": "臺北市立圖書館啟明分館",
            "addr": "臺北市松山區敦化北路155巷76號"
        },
        "geometry": {
            "type": "Point",
            "coordinates": [
                121.552123,
                25.054246
            ]
        }
    },
    {
        "type": "Feature",
        "properties": {
            "name": "臺北國際航空站",
            "addr": "臺北市松山區敦化北路340之9號"
        },
        "geometry": {
            "type": "Point",
            "coordinates": [
                121.551988,
                25.061964
            ]
        }
    },
    {
        "type": "Feature",
        "properties": {
            "name": "臺北國際航空站",
            "addr": "臺北市松山區敦化北路340之9號"
        },
        "geometry": {
            "type": "Point",
            "coordinates": [
                121.551988,
                25.061964
            ]
        }
    },
    {
        "type": "Feature",
        "properties": {
            "name": "臺北國際航空站",
            "addr": "臺北市松山區敦化北路340之9號"
        },
        "geometry": {
            "type": "Point",
            "coordinates": [
                121.551988,
                25.061964
            ]
        }
    },
    {
        "type": "Feature",
        "properties": {
            "name": "臺北國際航空站",
            "addr": "臺北市松山區敦話北路340之9號"
        },
        "geometry": {
            "type": "Point",
            "coordinates": [
                121.577272,
                25.049885
            ]
        }
    },
    {
        "type": "Feature",
        "properties": {
            "name": "臺北國際航空站",
            "addr": "臺北市松山區敦化北路340之9號"
        },
        "geometry": {
            "type": "Point",
            "coordinates": [
                121.551988,
                25.061964
            ]
        }
    },
    {
        "type": "Feature",
        "properties": {
            "name": "臺北國際航空站",
            "addr": "臺北市松山區敦化北路340之9號"
        },
        "geometry": {
            "type": "Point",
            "coordinates": [
                121.551988,
                25.061964
            ]
        }
    },
    {
        "type": "Feature",
        "properties": {
            "name": "臺北國際航空站",
            "addr": "臺北市松山區敦化北路340之9號"
        },
        "geometry": {
            "type": "Point",
            "coordinates": [
                121.551988,
                25.061964
            ]
        }
    },
    {
        "type": "Feature",
        "properties": {
            "name": "臺北國際航空站",
            "addr": "臺北市松山區敦化北路340之9號"
        },
        "geometry": {
            "type": "Point",
            "coordinates": [
                121.551988,
                25.061964
            ]
        }
    },
    {
        "type": "Feature",
        "properties": {
            "name": "臺北國際航空站",
            "addr": "臺北市松山區敦化北路340之9號"
        },
        "geometry": {
            "type": "Point",
            "coordinates": [
                121.551988,
                25.061964
            ]
        }
    },
    {
        "type": "Feature",
        "properties": {
            "name": "空軍松山基地指揮部",
            "addr": "臺北市松山區民權東路4段121號"
        },
        "geometry": {
            "type": "Point",
            "coordinates": [
                121.567098,
                25.063523
            ]
        }
    },
    {
        "type": "Feature",
        "properties": {
            "name": "臺北市政府警察局松山分局",
            "addr": "臺北市松山區南京東路4段12號"
        },
        "geometry": {
            "type": "Point",
            "coordinates": [
                121.549716,
                25.051648
            ]
        }
    },
    {
        "type": "Feature",
        "properties": {
            "name": "臺北市榮民服務處",
            "addr": "臺北市松山區光復北路1號"
        },
        "geometry": {
            "type": "Point",
            "coordinates": [
                121.5570856,
                25.0518393
            ]
        }
    },
    {
        "type": "Feature",
        "properties": {
            "name": "臺北市政府社會局發展遲緩兒童早期療育通報及轉介中心",
            "addr": "臺北市松山區民生東路5段163之1號"
        },
        "geometry": {
            "type": "Point",
            "coordinates": [
                121.555738,
                25.058267
            ]
        }
    },
    {
        "type": "Feature",
        "properties": {
            "name": "臺北市松山區戶政事務所",
            "addr": "臺北市松山區八德路4段692號"
        },
        "geometry": {
            "type": "Point",
            "coordinates": [
                121.5493,
                25.048161
            ]
        }
    },
    {
        "type": "Feature",
        "properties": {
            "name": "臺北市政府民政局民生社區中心",
            "addr": "臺北市松山區民生東路5段163之1號4樓"
        },
        "geometry": {
            "type": "Point",
            "coordinates": [
                121.555738,
                25.058267
            ]
        }
    },
    {
        "type": "Feature",
        "properties": {
            "name": "臺北市立圖書館民生分館",
            "addr": "臺北市松山區敦化北路199巷5號4樓"
        },
        "geometry": {
            "type": "Point",
            "coordinates": [
                121.552273396685,
                25.05607255
            ]
        }
    },
    {
        "type": "Feature",
        "properties": {
            "name": "臺北市政府體育局（臺北田徑場）",
            "addr": "臺北市松山區敦化北路3號"
        },
        "geometry": {
            "type": "Point",
            "coordinates": [
                121.548692,
                25.050102
            ]
        }
    },
    {
        "type": "Feature",
        "properties": {
            "name": "臺北市立圖書館松山分館",
            "addr": "臺北市松山區八德路4段688號5~8樓"
        },
        "geometry": {
            "type": "Point",
            "coordinates": [
                121.5493,
                25.048161
            ]
        }
    },
    {
        "type": "Feature",
        "properties": {
            "name": "微風置地股份有限公司南京分公司",
            "addr": "臺北市松山區南京東路3段337號"
        },
        "geometry": {
            "type": "Point",
            "coordinates": [
                121.557637,
                25.051756
            ]
        }
    },
    {
        "type": "Feature",
        "properties": {
            "name": "臺北市松山區公所",
            "addr": "臺北市松山區八德路4段692號7樓"
        },
        "geometry": {
            "type": "Point",
            "coordinates": [
                121.5493,
                25.048161
            ]
        }
    },
    {
        "type": "Feature",
        "properties": {
            "name": "臺北市松山運動中心",
            "addr": "臺北市松山區敦化北路1號"
        },
        "geometry": {
            "type": "Point",
            "coordinates": [
                121.550364,
                25.049299
            ]
        }
    },
    {
        "type": "Feature",
        "properties": {
            "name": "臺北市立圖書館中崙分館",
            "addr": "臺北市松山區長安東路2段229號8樓"
        },
        "geometry": {
            "type": "Point",
            "coordinates": [
                121.530483,
                25.048503
            ]
        }
    },
    {
        "type": "Feature",
        "properties": {
            "name": "臺北大眾捷運股份有限公司松山機場站",
            "addr": "臺北市松山區敦化北路338號"
        },
        "geometry": {
            "type": "Point",
            "coordinates": [
                121.551589,
                25.063188
            ]
        }
    },
    {
        "type": "Feature",
        "properties": {
            "name": "臺北大眾捷運股份有限公司南京復興站",
            "addr": "臺北市松山區南京東路3段253號地下2樓"
        },
        "geometry": {
            "type": "Point",
            "coordinates": [
                121.557637,
                25.051756
            ]
        }
    },
    {
        "type": "Feature",
        "properties": {
            "name": "臺北市松山親子館",
            "addr": "臺北市松山區民生東路5段163之1號"
        },
        "geometry": {
            "type": "Point",
            "coordinates": [
                121.555738,
                25.058267
            ]
        }
    },
    {
        "type": "Feature",
        "properties": {
            "name": "兄弟大飯店",
            "addr": "臺北市松山區南京東路3段255號"
        },
        "geometry": {
            "type": "Point",
            "coordinates": [
                121.557637,
                25.051756
            ]
        }
    },
    {
        "type": "Feature",
        "properties": {
            "name": "合尊酒店股份有限公司",
            "addr": "臺北市松山區敦化北路150號"
        },
        "geometry": {
            "type": "Point",
            "coordinates": [
                121.548461,
                25.054678
            ]
        }
    },
    {
        "type": "Feature",
        "properties": {
            "name": "CITYLINK松山貳號店（潤泰百益股份有限公司）",
            "addr": "臺北市松山區市民大道6段131號"
        },
        "geometry": {
            "type": "Point",
            "coordinates": [
                121.5790231,
                25.049546
            ]
        }
    },
    {
        "type": "Feature",
        "properties": {
            "name": "臺北市政府警察局保安警察大隊",
            "addr": "臺北市松山區延壽街339號"
        },
        "geometry": {
            "type": "Point",
            "coordinates": [
                121.559692,
                25.056711
            ]
        }
    },
    {
        "type": "Feature",
        "properties": {
            "name": "臺北市政府 （第一哺集乳室）",
            "addr": "臺北市信義區市府路1號1樓"
        },
        "geometry": {
            "type": "Point",
            "coordinates": [
                121.564008,
                25.037528
            ]
        }
    },
    {
        "type": "Feature",
        "properties": {
            "name": "臺北市政府 （第二哺集乳室）",
            "addr": "臺北市信義區市府路1號1樓"
        },
        "geometry": {
            "type": "Point",
            "coordinates": [
                121.564008,
                25.037528
            ]
        }
    },
    {
        "type": "Feature",
        "properties": {
            "name": "臺北市議會",
            "addr": "臺北市信義區仁愛路4段507號1樓"
        },
        "geometry": {
            "type": "Point",
            "coordinates": [
                121.521707,
                25.038592
            ]
        }
    },
    {
        "type": "Feature",
        "properties": {
            "name": "臺北市信義區公所",
            "addr": "臺北市信義區福德街86號"
        },
        "geometry": {
            "type": "Point",
            "coordinates": [
                121.580565,
                25.03683
            ]
        }
    },
    {
        "type": "Feature",
        "properties": {
            "name": "臺北市信義區戶政事務所",
            "addr": "臺北市信義區福德街86號"
        },
        "geometry": {
            "type": "Point",
            "coordinates": [
                121.580565,
                25.03683
            ]
        }
    },
    {
        "type": "Feature",
        "properties": {
            "name": "臺北市松山地政事務所",
            "addr": "臺北市信義區莊敬路391巷11弄2號1樓"
        },
        "geometry": {
            "type": "Point",
            "coordinates": [
                121.5653256,
                25.0288699
            ]
        }
    },
    {
        "type": "Feature",
        "properties": {
            "name": "臺北市動物保護處",
            "addr": "臺北市信義區吳興街600巷109號"
        },
        "geometry": {
            "type": "Point",
            "coordinates": [
                121.5703533,
                25.0197847
            ]
        }
    },
    {
        "type": "Feature",
        "properties": {
            "name": "臺北市政府警察局婦幼警察隊",
            "addr": "臺北市信義區信義路5段180號"
        },
        "geometry": {
            "type": "Point",
            "coordinates": [
                121.562227,
                25.034454
            ]
        }
    },
    {
        "type": "Feature",
        "properties": {
            "name": "臺北市信義運動中心",
            "addr": "臺北市信義區松勤街100號"
        },
        "geometry": {
            "type": "Point",
            "coordinates": [
                121.566847,
                25.0317
            ]
        }
    },
    {
        "type": "Feature",
        "properties": {
            "name": "行政院公共工程委員會",
            "addr": "臺北市信義區松仁路3號"
        },
        "geometry": {
            "type": "Point",
            "coordinates": [
                121.569415,
                25.039429
            ]
        }
    },
    {
        "type": "Feature",
        "properties": {
            "name": "國軍退除役官兵輔導委員會",
            "addr": "臺北市信義區忠孝東路5段222號1樓"
        },
        "geometry": {
            "type": "Point",
            "coordinates": [
                121.564579,
                25.041104
            ]
        }
    },
    {
        "type": "Feature",
        "properties": {
            "name": "內政部警政署刑事警察局",
            "addr": "臺北市信義區忠孝東路4段553巷5號"
        },
        "geometry": {
            "type": "Point",
            "coordinates": [
                121.564579,
                25.041104
            ]
        }
    },
    {
        "type": "Feature",
        "properties": {
            "name": "臺北市立聯合醫院松德院區",
            "addr": "臺北市信義區松德路309號"
        },
        "geometry": {
            "type": "Point",
            "coordinates": [
                121.574661,
                25.029292
            ]
        }
    },
    {
        "type": "Feature",
        "properties": {
            "name": "財團法人私立臺北醫學大學附設醫院",
            "addr": "臺北市信義區吳興街250號"
        },
        "geometry": {
            "type": "Point",
            "coordinates": [
                121.561589,
                25.026079
            ]
        }
    },
    {
        "type": "Feature",
        "properties": {
            "name": "交通部臺灣鐵路管理局松山車站",
            "addr": "臺北市信義區松山路11號"
        },
        "geometry": {
            "type": "Point",
            "coordinates": [
                121.578164,
                25.049154
            ]
        }
    },
    {
        "type": "Feature",
        "properties": {
            "name": "交通部臺灣鐵路管理局松山車站",
            "addr": "臺北市信義區松山路11號"
        },
        "geometry": {
            "type": "Point",
            "coordinates": [
                121.578164,
                25.049154
            ]
        }
    },
    {
        "type": "Feature",
        "properties": {
            "name": "新光三越百貨股份有限公司信義二館-A8",
            "addr": "臺北市信義區松高路12號"
        },
        "geometry": {
            "type": "Point",
            "coordinates": [
                121.566831,
                25.038468
            ]
        }
    },
    {
        "type": "Feature",
        "properties": {
            "name": "新光三越百貨股份有限公司信義分公司A11館",
            "addr": "臺北市信義區松壽路11號"
        },
        "geometry": {
            "type": "Point",
            "coordinates": [
                121.567113,
                25.036179
            ]
        }
    },
    {
        "type": "Feature",
        "properties": {
            "name": "誠品生活股份有限公司信義店",
            "addr": "臺北市信義區松高路11號"
        },
        "geometry": {
            "type": "Point",
            "coordinates": [
                121.565045,
                25.039679
            ]
        }
    },
    {
        "type": "Feature",
        "properties": {
            "name": "臺北市政府警察局信義分局",
            "addr": "臺北市信義區信義路5段17號"
        },
        "geometry": {
            "type": "Point",
            "coordinates": [
                121.562227,
                25.034454
            ]
        }
    },
    {
        "type": "Feature",
        "properties": {
            "name": "統一開發股份有限公司",
            "addr": "臺北市信義區忠孝東路5段6號"
        },
        "geometry": {
            "type": "Point",
            "coordinates": [
                121.564579,
                25.041104
            ]
        }
    },
    {
        "type": "Feature",
        "properties": {
            "name": "臺北大眾捷運股份有限公司市政府站",
            "addr": "臺北市信義區忠孝東路5段2號"
        },
        "geometry": {
            "type": "Point",
            "coordinates": [
                121.564579,
                25.041104
            ]
        }
    },
    {
        "type": "Feature",
        "properties": {
            "name": "新光三越百貨股份有限公司台北信義分公司三館A9",
            "addr": "臺北市信義區松壽路9號3樓"
        },
        "geometry": {
            "type": "Point",
            "coordinates": [
                121.566684,
                25.036731
            ]
        }
    },
    {
        "type": "Feature",
        "properties": {
            "name": "BELLAVITA寶麗廣場",
            "addr": "臺北市信義區松仁路28號3樓"
        },
        "geometry": {
            "type": "Point",
            "coordinates": [
                121.568534,
                25.039552
            ]
        }
    },
    {
        "type": "Feature",
        "properties": {
            "name": "統一百華股份有限公司台北分公司",
            "addr": "臺北市信義區忠孝東路5段8號"
        },
        "geometry": {
            "type": "Point",
            "coordinates": [
                121.564579,
                25.041104
            ]
        }
    },
    {
        "type": "Feature",
        "properties": {
            "name": "遠百企業股份有限公司 （忠孝分公司）",
            "addr": "臺北市信義區忠孝東路5段297號"
        },
        "geometry": {
            "type": "Point",
            "coordinates": [
                121.564579,
                25.041104
            ]
        }
    },
    {
        "type": "Feature",
        "properties": {
            "name": "松山文創園區",
            "addr": "臺北市信義區光復南路133號"
        },
        "geometry": {
            "type": "Point",
            "coordinates": [
                121.560333,
                25.043553
            ]
        }
    },
    {
        "type": "Feature",
        "properties": {
            "name": "臺北市立圖書館永春分館",
            "addr": "臺北市信義區松山路294號3樓"
        },
        "geometry": {
            "type": "Point",
            "coordinates": [
                121.577553,
                25.043102
            ]
        }
    },
    {
        "type": "Feature",
        "properties": {
            "name": "臺北市立圖書館三興分館",
            "addr": "臺北市信義區吳興街156巷6號4至5樓"
        },
        "geometry": {
            "type": "Point",
            "coordinates": [
                121.561074,
                25.028994
            ]
        }
    },
    {
        "type": "Feature",
        "properties": {
            "name": "臺北世界貿易中心展覽大樓（世貿一館）",
            "addr": "臺北市信義區信義路5段5號"
        },
        "geometry": {
            "type": "Point",
            "coordinates": [
                121.562227,
                25.034454
            ]
        }
    },
    {
        "type": "Feature",
        "properties": {
            "name": "威秀影城股份有限公司",
            "addr": "臺北市信義區松壽路20號"
        },
        "geometry": {
            "type": "Point",
            "coordinates": [
                121.567296,
                25.035044
            ]
        }
    },
    {
        "type": "Feature",
        "properties": {
            "name": "臺北世界貿易中心展覽大樓（世貿一館）",
            "addr": "臺北市信義區信義路5段5號"
        },
        "geometry": {
            "type": "Point",
            "coordinates": [
                121.562227,
                25.034454
            ]
        }
    },
    {
        "type": "Feature",
        "properties": {
            "name": "臺北世界貿易中心展覽大樓（世貿一館）",
            "addr": "臺北市信義區信義路5段5號"
        },
        "geometry": {
            "type": "Point",
            "coordinates": [
                121.562227,
                25.034454
            ]
        }
    },
    {
        "type": "Feature",
        "properties": {
            "name": "誠品生活股份有限公司松菸店",
            "addr": "臺北市信義區菸廠路88號3樓"
        },
        "geometry": {
            "type": "Point",
            "coordinates": [
                121.561255,
                25.04455
            ]
        }
    },
    {
        "type": "Feature",
        "properties": {
            "name": "臺北大眾捷運股份有限公司台北101世貿站",
            "addr": "臺北市信義區信義路5段20號"
        },
        "geometry": {
            "type": "Point",
            "coordinates": [
                121.562227,
                25.034454
            ]
        }
    },
    {
        "type": "Feature",
        "properties": {
            "name": "微風置地股份有限公司松高分公司",
            "addr": "臺北市信義區松高路16號"
        },
        "geometry": {
            "type": "Point",
            "coordinates": [
                121.567288,
                25.037912
            ]
        }
    },
    {
        "type": "Feature",
        "properties": {
            "name": "臺北市信義親子館",
            "addr": "臺北市信義區松勤街50號"
        },
        "geometry": {
            "type": "Point",
            "coordinates": [
                121.561957,
                25.03147
            ]
        }
    },
    {
        "type": "Feature",
        "properties": {
            "name": "微風置地股份有限公司信義分公司",
            "addr": "臺北市信義區忠孝東路5段68號"
        },
        "geometry": {
            "type": "Point",
            "coordinates": [
                121.564579,
                25.041104
            ]
        }
    },
    {
        "type": "Feature",
        "properties": {
            "name": "台北金融大樓股份有限公司",
            "addr": "臺北市信義區市府路45號"
        },
        "geometry": {
            "type": "Point",
            "coordinates": [
                121.564406,
                25.034055
            ]
        }
    },
    {
        "type": "Feature",
        "properties": {
            "name": "台北金融大樓股份有限公司",
            "addr": "臺北市信義區市府路45號"
        },
        "geometry": {
            "type": "Point",
            "coordinates": [
                121.564406,
                25.034055
            ]
        }
    },
    {
        "type": "Feature",
        "properties": {
            "name": "時代國際飯店股份有限公司",
            "addr": "臺北市信義區忠孝東路5段10號"
        },
        "geometry": {
            "type": "Point",
            "coordinates": [
                121.564579,
                25.041104
            ]
        }
    },
    {
        "type": "Feature",
        "properties": {
            "name": "國立國父紀念館",
            "addr": "臺北市信義區仁愛路4段505號"
        },
        "geometry": {
            "type": "Point",
            "coordinates": [
                121.521707,
                25.038592
            ]
        }
    },
    {
        "type": "Feature",
        "properties": {
            "name": "新光三越百貨股份有限公司台北信義分公司四館A4",
            "addr": "臺北市信義區松高路19號"
        },
        "geometry": {
            "type": "Point",
            "coordinates": [
                121.566351,
                25.039346
            ]
        }
    },
    {
        "type": "Feature",
        "properties": {
            "name": "潤泰百益股份有限公司（Citylink松山店）",
            "addr": "臺北市信義區松山路11號3樓"
        },
        "geometry": {
            "type": "Point",
            "coordinates": [
                121.578164,
                25.049154
            ]
        }
    },
    {
        "type": "Feature",
        "properties": {
            "name": "臺北醫學大學",
            "addr": "臺北市信義區吳興街250號 "
        },
        "geometry": {
            "type": "Point",
            "coordinates": [
                121.561589,
                25.026079
            ]
        }
    },
    {
        "type": "Feature",
        "properties": {
            "name": "中華民國對外貿易發展協會台北世貿中心展會營運處（台北國際會議中心）",
            "addr": "臺北市信義區信義路5段1號"
        },
        "geometry": {
            "type": "Point",
            "coordinates": [
                121.562227,
                25.034454
            ]
        }
    },
    {
        "type": "Feature",
        "properties": {
            "name": "微風置地股份有限公司南山分公司",
            "addr": "臺北市信義區松智路17號"
        },
        "geometry": {
            "type": "Point",
            "coordinates": [
                121.566353,
                25.034416
            ]
        }
    },
    {
        "type": "Feature",
        "properties": {
            "name": "吸引力生活事業股份有限公司（ATT 4 FUN 信義店）",
            "addr": "臺北市信義區松壽路12號"
        },
        "geometry": {
            "type": "Point",
            "coordinates": [
                121.566081,
                25.035436
            ]
        }
    },
    {
        "type": "Feature",
        "properties": {
            "name": "吸引力生活事業股份有限公司（ATT 4 FUN 信義店）",
            "addr": "臺北市信義區松壽路12號"
        },
        "geometry": {
            "type": "Point",
            "coordinates": [
                121.566081,
                25.035436
            ]
        }
    },
    {
        "type": "Feature",
        "properties": {
            "name": "豐隆大飯店股份有限公司（台北君悅酒店）",
            "addr": "臺北市信義區松壽路2號"
        },
        "geometry": {
            "type": "Point",
            "coordinates": [
                121.562964,
                25.035274
            ]
        }
    },
    {
        "type": "Feature",
        "properties": {
            "name": "寒舍國際酒店股份有限公司（寒舍艾麗酒店）",
            "addr": "臺北市信義區松高路18號"
        },
        "geometry": {
            "type": "Point",
            "coordinates": [
                121.567399,
                25.038789
            ]
        }
    },
    {
        "type": "Feature",
        "properties": {
            "name": "寒舍餐旅管理顧問股份有限公司信義分公司（台北寒舍艾美酒店）",
            "addr": "臺北市信義區松仁路38號"
        },
        "geometry": {
            "type": "Point",
            "coordinates": [
                121.567956,
                25.037822
            ]
        }
    },
    {
        "type": "Feature",
        "properties": {
            "name": "遠東百貨股份有限公司",
            "addr": "臺北市信義區松仁路58號"
        },
        "geometry": {
            "type": "Point",
            "coordinates": [
                121.567956,
                25.036756
            ]
        }
    },
    {
        "type": "Feature",
        "properties": {
            "name": "臺北市立圖書館總館",
            "addr": "臺北市大安區建國南路2段125號"
        },
        "geometry": {
            "type": "Point",
            "coordinates": [
                121.537458,
                25.023034
            ]
        }
    },
    {
        "type": "Feature",
        "properties": {
            "name": "臺北市客家文化會館",
            "addr": "臺北市大安區信義路3段157巷11號"
        },
        "geometry": {
            "type": "Point",
            "coordinates": [
                121.533219,
                25.033859
            ]
        }
    },
    {
        "type": "Feature",
        "properties": {
            "name": "公務人力發展中心",
            "addr": "臺北市大安區新生南路3段30號"
        },
        "geometry": {
            "type": "Point",
            "coordinates": [
                121.534772,
                25.025873
            ]
        }
    },
    {
        "type": "Feature",
        "properties": {
            "name": "經濟部智慧財產局",
            "addr": "臺北市大安區辛亥路2段185號3樓"
        },
        "geometry": {
            "type": "Point",
            "coordinates": [
                121.537695,
                25.022419
            ]
        }
    },
    {
        "type": "Feature",
        "properties": {
            "name": "經濟部工業局",
            "addr": "臺北市大安區信義路3段41之3號"
        },
        "geometry": {
            "type": "Point",
            "coordinates": [
                121.533219,
                25.033859
            ]
        }
    },
    {
        "type": "Feature",
        "properties": {
            "name": "臺北市立聯合醫院仁愛院區",
            "addr": "臺北市大安區仁愛路四段10號2樓"
        },
        "geometry": {
            "type": "Point",
            "coordinates": [
                121.543873,
                25.038152
            ]
        }
    },
    {
        "type": "Feature",
        "properties": {
            "name": "中山醫療社團法人中山醫院",
            "addr": "臺北市大安區仁愛路4段112巷11號"
        },
        "geometry": {
            "type": "Point",
            "coordinates": [
                121.53303,
                25.037985
            ]
        }
    },
    {
        "type": "Feature",
        "properties": {
            "name": "臺北大眾捷運股份有限公司忠孝復興站",
            "addr": "臺北市大安區忠孝東路4段47號3樓"
        },
        "geometry": {
            "type": "Point",
            "coordinates": [
                121.553454,
                25.041666
            ]
        }
    },
    {
        "type": "Feature",
        "properties": {
            "name": "太平洋崇光百貨股份有限公司忠孝館",
            "addr": "臺北市大安區忠孝東路4段45號"
        },
        "geometry": {
            "type": "Point",
            "coordinates": [
                121.553454,
                25.041666
            ]
        }
    },
    {
        "type": "Feature",
        "properties": {
            "name": "臺北市大安運動中心",
            "addr": "臺北市大安區辛亥路3段55號"
        },
        "geometry": {
            "type": "Point",
            "coordinates": [
                121.537695,
                25.022419
            ]
        }
    },
    {
        "type": "Feature",
        "properties": {
            "name": "明曜百貨股份有限公司",
            "addr": "臺北市大安區忠孝東路4段200號"
        },
        "geometry": {
            "type": "Point",
            "coordinates": [
                121.553454,
                25.041666
            ]
        }
    },
    {
        "type": "Feature",
        "properties": {
            "name": "台灣電力股份有限公司台北市區營業處",
            "addr": "臺北市大安區基隆路4段75號"
        },
        "geometry": {
            "type": "Point",
            "coordinates": [
                121.540074,
                25.013466
            ]
        }
    },
    {
        "type": "Feature",
        "properties": {
            "name": "臺北市大安區公所",
            "addr": "臺北市大安區新生南路2段86號8至9樓"
        },
        "geometry": {
            "type": "Point",
            "coordinates": [
                121.53469,
                25.025813
            ]
        }
    },
    {
        "type": "Feature",
        "properties": {
            "name": "臺北市殯葬管理處第二殯儀館",
            "addr": "臺北市大安區辛亥路3段330號"
        },
        "geometry": {
            "type": "Point",
            "coordinates": [
                121.537695,
                25.022419
            ]
        }
    },
    {
        "type": "Feature",
        "properties": {
            "name": "臺北市大安區健康服務中心",
            "addr": "臺北市大安區辛亥路3段15號1樓"
        },
        "geometry": {
            "type": "Point",
            "coordinates": [
                121.537695,
                25.022419
            ]
        }
    },
    {
        "type": "Feature",
        "properties": {
            "name": "交通部觀光局",
            "addr": "臺北市大安區忠孝東路4段290號9樓"
        },
        "geometry": {
            "type": "Point",
            "coordinates": [
                121.553454,
                25.041666
            ]
        }
    },
    {
        "type": "Feature",
        "properties": {
            "name": "臺北市政府警察局大安分局",
            "addr": "臺北市大安區仁愛路3段2號1樓"
        },
        "geometry": {
            "type": "Point",
            "coordinates": [
                121.543873,
                25.038152
            ]
        }
    },
    {
        "type": "Feature",
        "properties": {
            "name": "臺灣銀行信義分行",
            "addr": "臺北市大安區信義路2段88號"
        },
        "geometry": {
            "type": "Point",
            "coordinates": [
                121.545524,
                25.03343
            ]
        }
    },
    {
        "type": "Feature",
        "properties": {
            "name": "臺北大眾捷運股份有限公司忠孝新生站",
            "addr": "臺北市大安區新生南路1段67號"
        },
        "geometry": {
            "type": "Point",
            "coordinates": [
                121.535337,
                25.017768
            ]
        }
    },
    {
        "type": "Feature",
        "properties": {
            "name": "太平洋崇光百貨股份有限公司復興館",
            "addr": "臺北市大安區忠孝東路3段300號"
        },
        "geometry": {
            "type": "Point",
            "coordinates": [
                121.543838,
                25.041556
            ]
        }
    },
    {
        "type": "Feature",
        "properties": {
            "name": "遠企購物中心（亞東百貨股份有限公司）",
            "addr": "臺北市大安區敦化南路2段203號"
        },
        "geometry": {
            "type": "Point",
            "coordinates": [
                121.548304,
                25.033055
            ]
        }
    },
    {
        "type": "Feature",
        "properties": {
            "name": "臺北市大安地政事務所",
            "addr": "臺北市大安區信義路4段335巷6號"
        },
        "geometry": {
            "type": "Point",
            "coordinates": [
                121.54551,
                25.03343
            ]
        }
    },
    {
        "type": "Feature",
        "properties": {
            "name": "臺灣銀行信安分行",
            "addr": "臺北市大安區信義路3段132號"
        },
        "geometry": {
            "type": "Point",
            "coordinates": [
                121.533219,
                25.033859
            ]
        }
    },
    {
        "type": "Feature",
        "properties": {
            "name": "財政部臺北市國稅局大安分局",
            "addr": "臺北市大安區新生南路2段86號"
        },
        "geometry": {
            "type": "Point",
            "coordinates": [
                121.53469,
                25.025813
            ]
        }
    },
    {
        "type": "Feature",
        "properties": {
            "name": "臺北市立圖書館龍安民眾閱覽室",
            "addr": "臺北市大安區永康街60號"
        },
        "geometry": {
            "type": "Point",
            "coordinates": [
                121.529357,
                25.028574
            ]
        }
    },
    {
        "type": "Feature",
        "properties": {
            "name": "臺北市立圖書館道藩分館",
            "addr": "臺北市大安區辛亥路3段11號3樓"
        },
        "geometry": {
            "type": "Point",
            "coordinates": [
                121.537695,
                25.022419
            ]
        }
    },
    {
        "type": "Feature",
        "properties": {
            "name": "國家教育研究院",
            "addr": "臺北市大安區和平東路1段179號"
        },
        "geometry": {
            "type": "Point",
            "coordinates": [
                121.54671,
                25.024637
            ]
        }
    },
    {
        "type": "Feature",
        "properties": {
            "name": "土地銀行和平分行",
            "addr": "臺北市大安區和平東路3段15號"
        },
        "geometry": {
            "type": "Point",
            "coordinates": [
                121.546762,
                25.024633
            ]
        }
    },
    {
        "type": "Feature",
        "properties": {
            "name": "太平洋崇光百貨股份有限公司敦化館",
            "addr": "臺北市敦化南路1段246號"
        },
        "geometry": {
            "type": "Point",
            "coordinates": [
                121.549355,
                25.047676
            ]
        }
    },
    {
        "type": "Feature",
        "properties": {
            "name": "建南區民活動中心",
            "addr": "臺北市大安區信義路3段134巷82號"
        },
        "geometry": {
            "type": "Point",
            "coordinates": [
                121.533219,
                25.033859
            ]
        }
    },
    {
        "type": "Feature",
        "properties": {
            "name": "臺北市大安森林公園",
            "addr": "臺北市大安區新生南路2段1號"
        },
        "geometry": {
            "type": "Point",
            "coordinates": [
                121.53469,
                25.025813
            ]
        }
    },
    {
        "type": "Feature",
        "properties": {
            "name": "臺北大眾捷運股份有限公司東門站",
            "addr": "臺北市大安區信義路2段166號"
        },
        "geometry": {
            "type": "Point",
            "coordinates": [
                121.545524,
                25.03343
            ]
        }
    },
    {
        "type": "Feature",
        "properties": {
            "name": "臺北大眾捷運股份有限公司大安站",
            "addr": "臺北市大安區信義路3段180號"
        },
        "geometry": {
            "type": "Point",
            "coordinates": [
                121.533219,
                25.033859
            ]
        }
    },
    {
        "type": "Feature",
        "properties": {
            "name": "臺北大眾捷運股份有限公司大安森林公園站",
            "addr": "臺北市大安區信義路3段100號"
        },
        "geometry": {
            "type": "Point",
            "coordinates": [
                121.533219,
                25.033859
            ]
        }
    },
    {
        "type": "Feature",
        "properties": {
            "name": "鼎鼎大飯店股份有限公司台北遠東國際大飯店",
            "addr": "臺北市大安區敦化南路2段201號"
        },
        "geometry": {
            "type": "Point",
            "coordinates": [
                121.548304,
                25.033055
            ]
        }
    },
    {
        "type": "Feature",
        "properties": {
            "name": "台北福華大飯店",
            "addr": "臺北市大安區仁愛路3段160號"
        },
        "geometry": {
            "type": "Point",
            "coordinates": [
                121.543873,
                25.038152
            ]
        }
    },
    {
        "type": "Feature",
        "properties": {
            "name": "臺北和平籃球館",
            "addr": "臺北市大安區敦南街76巷28號"
        },
        "geometry": {
            "type": "Point",
            "coordinates": [
                121.546478839058,
                25.021483
            ]
        }
    },
    {
        "type": "Feature",
        "properties": {
            "name": "臺北和平籃球館",
            "addr": "臺北市大安區敦南街76巷28號"
        },
        "geometry": {
            "type": "Point",
            "coordinates": [
                121.546478839058,
                25.021483
            ]
        }
    },
    {
        "type": "Feature",
        "properties": {
            "name": "國聯飯店",
            "addr": "臺北市大安區光復南路200號"
        },
        "geometry": {
            "type": "Point",
            "coordinates": [
                121.5564468,
                25.0420499
            ]
        }
    },
    {
        "type": "Feature",
        "properties": {
            "name": "福容大飯店股份有限公司台北分公司",
            "addr": "臺北市大安區建國南路1段266號"
        },
        "geometry": {
            "type": "Point",
            "coordinates": [
                121.537295,
                25.021311
            ]
        }
    },
    {
        "type": "Feature",
        "properties": {
            "name": "公有南門市場",
            "addr": "臺北市大安區杭州南路2段55號"
        },
        "geometry": {
            "type": "Point",
            "coordinates": [
                121.524228,
                25.035199
            ]
        }
    },
    {
        "type": "Feature",
        "properties": {
            "name": "臺北市中山區健康服務中心",
            "addr": "臺北市中山區松江路367號7樓"
        },
        "geometry": {
            "type": "Point",
            "coordinates": [
                121.533602,
                25.064468
            ]
        }
    },
    {
        "type": "Feature",
        "properties": {
            "name": "臺北市中山地政事務所",
            "addr": "臺北市中山區松江路357巷1號"
        },
        "geometry": {
            "type": "Point",
            "coordinates": [
                121.5342865,
                25.0634027
            ]
        }
    },
    {
        "type": "Feature",
        "properties": {
            "name": "臺北市立美術館",
            "addr": "臺北市中山北路3段181號"
        },
        "geometry": {
            "type": "Point",
            "coordinates": [
                121.52775,
                25.056694
            ]
        }
    },
    {
        "type": "Feature",
        "properties": {
            "name": "臺北市政府警察局中山分局",
            "addr": "臺北市中山區中山北路2段1號"
        },
        "geometry": {
            "type": "Point",
            "coordinates": [
                121.523408,
                25.070766
            ]
        }
    },
    {
        "type": "Feature",
        "properties": {
            "name": "臺北市立聯合醫院林森中醫昆明院區",
            "addr": "臺北市中山區林森北路530號"
        },
        "geometry": {
            "type": "Point",
            "coordinates": [
                121.525621,
                25.063027
            ]
        }
    },
    {
        "type": "Feature",
        "properties": {
            "name": "協和婦女醫院",
            "addr": "臺北市中山區松江路85巷5號"
        },
        "geometry": {
            "type": "Point",
            "coordinates": [
                121.534419,
                25.050178
            ]
        }
    },
    {
        "type": "Feature",
        "properties": {
            "name": "台灣基督長老教會馬偕醫療財團法人馬偕紀念醫院",
            "addr": "臺北市中山區中山北路2段92號"
        },
        "geometry": {
            "type": "Point",
            "coordinates": [
                121.523408,
                25.070766
            ]
        }
    },
    {
        "type": "Feature",
        "properties": {
            "name": "新光三越百貨股份有限公司台北南西分公司",
            "addr": "臺北市中山區南京西路12號"
        },
        "geometry": {
            "type": "Point",
            "coordinates": [
                121.521098,
                25.052085
            ]
        }
    },
    {
        "type": "Feature",
        "properties": {
            "name": "美麗華城市發展股份有限公司",
            "addr": "臺北市中山區敬業三路20號"
        },
        "geometry": {
            "type": "Point",
            "coordinates": [
                121.556681,
                25.082967
            ]
        }
    },
    {
        "type": "Feature",
        "properties": {
            "name": "財團法人台灣敦睦聯誼會所屬作業組織圓山大飯店",
            "addr": "臺北市中山區中山北路4段1巷1號"
        },
        "geometry": {
            "type": "Point",
            "coordinates": [
                121.523307,
                25.070553
            ]
        }
    },
    {
        "type": "Feature",
        "properties": {
            "name": "教育部體育署",
            "addr": "臺北市中山區朱崙街20號"
        },
        "geometry": {
            "type": "Point",
            "coordinates": [
                121.539654,
                25.049765
            ]
        }
    },
    {
        "type": "Feature",
        "properties": {
            "name": "臺北市中山運動中心",
            "addr": "臺北市中山區中山北路2段44巷2號"
        },
        "geometry": {
            "type": "Point",
            "coordinates": [
                121.523408,
                25.070766
            ]
        }
    },
    {
        "type": "Feature",
        "properties": {
            "name": "臺北市殯葬管理處第一殯儀館",
            "addr": "臺北市中山區民權東路2段145號"
        },
        "geometry": {
            "type": "Point",
            "coordinates": [
                121.537543,
                25.062144
            ]
        }
    },
    {
        "type": "Feature",
        "properties": {
            "name": "臺北自來水事業處北區營業分處",
            "addr": "臺北市中山區長安西路3號2樓"
        },
        "geometry": {
            "type": "Point",
            "coordinates": [
                121.521022,
                25.050309
            ]
        }
    },
    {
        "type": "Feature",
        "properties": {
            "name": "潤泰創新國際股份有限公司中崙分公司",
            "addr": "臺北市中山區八德路2段306號"
        },
        "geometry": {
            "type": "Point",
            "coordinates": [
                121.549368,
                25.047914
            ]
        }
    },
    {
        "type": "Feature",
        "properties": {
            "name": "家樂福大直店",
            "addr": "臺北市中山區樂群三路218號"
        },
        "geometry": {
            "type": "Point",
            "coordinates": [
                121.558661,
                25.082628
            ]
        }
    },
    {
        "type": "Feature",
        "properties": {
            "name": "臺北市立圖書館大直分館",
            "addr": "臺北市中山區大直街25號3至5樓"
        },
        "geometry": {
            "type": "Point",
            "coordinates": [
                121.546748,
                25.081879
            ]
        }
    },
    {
        "type": "Feature",
        "properties": {
            "name": "臺北市立圖書館恆安民眾閱覽室",
            "addr": "臺北市中山區民權東路1段71巷19號2樓"
        },
        "geometry": {
            "type": "Point",
            "coordinates": [
                121.539097,
                25.062969
            ]
        }
    },
    {
        "type": "Feature",
        "properties": {
            "name": "臺北市立圖書館中山分館",
            "addr": "臺北市中山區松江路367號8樓"
        },
        "geometry": {
            "type": "Point",
            "coordinates": [
                121.533602,
                25.064468
            ]
        }
    },
    {
        "type": "Feature",
        "properties": {
            "name": "桑斯伯國際有限公司榮星公園營業站（臺北市政府勞動局委外）",
            "addr": "臺北市中山區建國北路3段39號"
        },
        "geometry": {
            "type": "Point",
            "coordinates": [
                121.537285,
                25.063853
            ]
        }
    },
    {
        "type": "Feature",
        "properties": {
            "name": "中山老人住宅暨服務中心",
            "addr": "臺北市中山區新生北路2段101巷2號"
        },
        "geometry": {
            "type": "Point",
            "coordinates": [
                121.52775,
                25.056701
            ]
        }
    },
    {
        "type": "Feature",
        "properties": {
            "name": "花博公園天使生活館",
            "addr": "臺北市中山區濱江街6號"
        },
        "geometry": {
            "type": "Point",
            "coordinates": [
                121.528115,
                25.070716
            ]
        }
    },
    {
        "type": "Feature",
        "properties": {
            "name": "桑斯博國際有限公司新生公園營業站（臺北市政府工務局公園路燈管理處新生公園游泳池委外）",
            "addr": "臺北市中山區新生北路3段105號"
        },
        "geometry": {
            "type": "Point",
            "coordinates": [
                121.52775,
                25.056694
            ]
        }
    },
    {
        "type": "Feature",
        "properties": {
            "name": "臺北市政府民政局林安泰古厝民俗文物館",
            "addr": "臺北市中山區濱江街5號"
        },
        "geometry": {
            "type": "Point",
            "coordinates": [
                121.530462,
                25.072431
            ]
        }
    },
    {
        "type": "Feature",
        "properties": {
            "name": "財政部臺北國稅局松山分局",
            "addr": "臺北市中山區南京東路3段131號3樓"
        },
        "geometry": {
            "type": "Point",
            "coordinates": [
                121.543958,
                25.051773
            ]
        }
    },
    {
        "type": "Feature",
        "properties": {
            "name": "臺北市立圖書館長安分館",
            "addr": "臺北市中山區長安西路3號4樓"
        },
        "geometry": {
            "type": "Point",
            "coordinates": [
                121.521022,
                25.050309
            ]
        }
    },
    {
        "type": "Feature",
        "properties": {
            "name": "中山公民會館",
            "addr": "臺北市中山區中山北路2段128號"
        },
        "geometry": {
            "type": "Point",
            "coordinates": [
                121.523408,
                25.070766
            ]
        }
    },
    {
        "type": "Feature",
        "properties": {
            "name": "新光三越百貨股份有限公司台北南西分公司三館",
            "addr": "臺北市中山區南京西路15號"
        },
        "geometry": {
            "type": "Point",
            "coordinates": [
                121.520455,
                25.052576
            ]
        }
    },
    {
        "type": "Feature",
        "properties": {
            "name": "臺北漁產運銷股份有限公司",
            "addr": "臺北市中山區民族東路410巷2弄20號"
        },
        "geometry": {
            "type": "Point",
            "coordinates": [
                121.537388,
                25.066845
            ]
        }
    },
    {
        "type": "Feature",
        "properties": {
            "name": "臺北農產運銷股份有限公司",
            "addr": "臺北市中山區民族東路336號"
        },
        "geometry": {
            "type": "Point",
            "coordinates": [
                121.535999,
                25.068137
            ]
        }
    },
    {
        "type": "Feature",
        "properties": {
            "name": "臺北大眾捷運股份有限公司松江南京站",
            "addr": "臺北市中山區松江路126號"
        },
        "geometry": {
            "type": "Point",
            "coordinates": [
                121.533036,
                25.052014
            ]
        }
    },
    {
        "type": "Feature",
        "properties": {
            "name": "財政部臺北國稅局中北稽徵所",
            "addr": "臺北市中山區松江路219號3樓"
        },
        "geometry": {
            "type": "Point",
            "coordinates": [
                121.533412,
                25.057321
            ]
        }
    },
    {
        "type": "Feature",
        "properties": {
            "name": "臺北市政府消防局第三救災救護大隊中山中隊松江分隊",
            "addr": "臺北市中山區松江路25巷9號"
        },
        "geometry": {
            "type": "Point",
            "coordinates": [
                121.534125,
                25.047663
            ]
        }
    },
    {
        "type": "Feature",
        "properties": {
            "name": "誠品生活股份有限公司南西分公司",
            "addr": "臺北市中山區南京西路14號"
        },
        "geometry": {
            "type": "Point",
            "coordinates": [
                121.520667,
                25.052188
            ]
        }
    },
    {
        "type": "Feature",
        "properties": {
            "name": "老爺大酒店",
            "addr": "臺北市中山區中山北路2段37之1號"
        },
        "geometry": {
            "type": "Point",
            "coordinates": [
                121.523408,
                25.070766
            ]
        }
    },
    {
        "type": "Feature",
        "properties": {
            "name": "晶華酒店",
            "addr": "臺北市中山區中山北路2段39巷3號"
        },
        "geometry": {
            "type": "Point",
            "coordinates": [
                121.523408,
                25.070766
            ]
        }
    },
    {
        "type": "Feature",
        "properties": {
            "name": "美麗信花園酒店",
            "addr": "臺北市中山區市民大道3段83號"
        },
        "geometry": {
            "type": "Point",
            "coordinates": [
                121.567372,
                25.0461218
            ]
        }
    },
    {
        "type": "Feature",
        "properties": {
            "name": "台北亞都麗緻大飯店",
            "addr": "臺北市中山區民權東路2段41號"
        },
        "geometry": {
            "type": "Point",
            "coordinates": [
                121.537543,
                25.062144
            ]
        }
    },
    {
        "type": "Feature",
        "properties": {
            "name": "欣欣百貨",
            "addr": "臺北市中山區林森北路247號1樓"
        },
        "geometry": {
            "type": "Point",
            "coordinates": [
                121.5270015,
                25.0613312
            ]
        }
    },
    {
        "type": "Feature",
        "properties": {
            "name": "歐華酒店",
            "addr": "臺北市中山區林森北路646號"
        },
        "geometry": {
            "type": "Point",
            "coordinates": [
                121.525741,
                25.067915
            ]
        }
    },
    {
        "type": "Feature",
        "properties": {
            "name": "國王大飯店",
            "addr": "臺北市中山區南京東路1段118號"
        },
        "geometry": {
            "type": "Point",
            "coordinates": [
                121.537204,
                25.052204
            ]
        }
    },
    {
        "type": "Feature",
        "properties": {
            "name": "第一大飯店",
            "addr": "臺北市中山區南京東路2段63號"
        },
        "geometry": {
            "type": "Point",
            "coordinates": [
                121.528039,
                25.051838
            ]
        }
    },
    {
        "type": "Feature",
        "properties": {
            "name": "台北美福大飯店",
            "addr": "臺北市中山區樂群二路55號"
        },
        "geometry": {
            "type": "Point",
            "coordinates": [
                121.55379,
                25.080604
            ]
        }
    },
    {
        "type": "Feature",
        "properties": {
            "name": "義華酒店",
            "addr": "臺北市中山區樂群二路197號"
        },
        "geometry": {
            "type": "Point",
            "coordinates": [
                121.558741,
                25.079931
            ]
        }
    },
    {
        "type": "Feature",
        "properties": {
            "name": "台北萬豪酒店",
            "addr": "臺北市中山區樂群二路199號"
        },
        "geometry": {
            "type": "Point",
            "coordinates": [
                121.559283,
                25.080476
            ]
        }
    },
    {
        "type": "Feature",
        "properties": {
            "name": "花博公園圓山園區─臺北市休閒農業旅遊服務中心（財團法人臺北市會展產業發展基金會委外）",
            "addr": "臺北市中山區玉門街1號"
        },
        "geometry": {
            "type": "Point",
            "coordinates": [
                121.521244,
                25.069468
            ]
        }
    },
    {
        "type": "Feature",
        "properties": {
            "name": "立法院",
            "addr": "臺北市中正區中山南路1號"
        },
        "geometry": {
            "type": "Point",
            "coordinates": [
                121.51958,
                25.044
            ]
        }
    },
    {
        "type": "Feature",
        "properties": {
            "name": "內政部",
            "addr": "臺北市中正區徐州路5號"
        },
        "geometry": {
            "type": "Point",
            "coordinates": [
                121.51954,
                25.042182
            ]
        }
    },
    {
        "type": "Feature",
        "properties": {
            "name": "交通部",
            "addr": "臺北市中正區仁愛路1段50號"
        },
        "geometry": {
            "type": "Point",
            "coordinates": [
                121.519919,
                25.039451
            ]
        }
    },
    {
        "type": "Feature",
        "properties": {
            "name": "內政部移民署臺北市服務站",
            "addr": "臺北市中正區廣州街15號"
        },
        "geometry": {
            "type": "Point",
            "coordinates": [
                121.508079,
                25.035788
            ]
        }
    },
    {
        "type": "Feature",
        "properties": {
            "name": "臺灣高等法院民事庭",
            "addr": "臺北市中正區貴陽街1段233號"
        },
        "geometry": {
            "type": "Point",
            "coordinates": [
                121.516296,
                25.045722
            ]
        }
    },
    {
        "type": "Feature",
        "properties": {
            "name": "臺灣高等法院刑事庭",
            "addr": "臺北市中正區博愛路127號"
        },
        "geometry": {
            "type": "Point",
            "coordinates": [
                121.51131,
                25.037641
            ]
        }
    },
    {
        "type": "Feature",
        "properties": {
            "name": "衛生福利部中央健康保險署臺北業務組",
            "addr": "臺北市中正區公園路15之1號5樓"
        },
        "geometry": {
            "type": "Point",
            "coordinates": [
                121.517434,
                25.045204
            ]
        }
    },
    {
        "type": "Feature",
        "properties": {
            "name": "國家圖書館",
            "addr": "臺北市中正區中山南路20號"
        },
        "geometry": {
            "type": "Point",
            "coordinates": [
                121.516696,
                25.037612
            ]
        }
    },
    {
        "type": "Feature",
        "properties": {
            "name": "國立中正紀念堂管理處",
            "addr": "臺北市中正區中山南路21號"
        },
        "geometry": {
            "type": "Point",
            "coordinates": [
                121.519233,
                25.036982
            ]
        }
    },
    {
        "type": "Feature",
        "properties": {
            "name": "臺北市政府警察局",
            "addr": "臺北市中正區延平南路96號"
        },
        "geometry": {
            "type": "Point",
            "coordinates": [
                121.50959,
                25.043889
            ]
        }
    },
    {
        "type": "Feature",
        "properties": {
            "name": "臺北市政府警察局中正第一分局",
            "addr": "臺北市中正區公園路15號"
        },
        "geometry": {
            "type": "Point",
            "coordinates": [
                121.517434,
                25.045204
            ]
        }
    },
    {
        "type": "Feature",
        "properties": {
            "name": "臺北市政府警察局中正第二分局",
            "addr": "臺北市中正區南海路35號1樓"
        },
        "geometry": {
            "type": "Point",
            "coordinates": [
                121.513927,
                25.032062
            ]
        }
    },
    {
        "type": "Feature",
        "properties": {
            "name": "臺北市中正區公所",
            "addr": "臺北市中正區忠孝東路1段108號8樓"
        },
        "geometry": {
            "type": "Point",
            "coordinates": [
                121.520933,
                25.046271
            ]
        }
    },
    {
        "type": "Feature",
        "properties": {
            "name": "臺北市交通事件裁決所",
            "addr": "臺北市中正區羅斯福路4段92號8樓"
        },
        "geometry": {
            "type": "Point",
            "coordinates": [
                121.517527,
                25.033144
            ]
        }
    },
    {
        "type": "Feature",
        "properties": {
            "name": "臺北市稅捐稽徵處",
            "addr": "臺北市中正區北平東路7之2號"
        },
        "geometry": {
            "type": "Point",
            "coordinates": [
                121.523729,
                25.046365
            ]
        }
    },
    {
        "type": "Feature",
        "properties": {
            "name": "臺北市中正區健康服務中心",
            "addr": "臺北市中正區牯嶺街24號1樓"
        },
        "geometry": {
            "type": "Point",
            "coordinates": [
                121.515871,
                25.030398
            ]
        }
    },
    {
        "type": "Feature",
        "properties": {
            "name": "臺北市立聯合醫院和平婦幼院區（和平院區）",
            "addr": "臺北市中正區中華路2段33號A棟2樓"
        },
        "geometry": {
            "type": "Point",
            "coordinates": [
                121.550901,
                25.054096
            ]
        }
    },
    {
        "type": "Feature",
        "properties": {
            "name": "臺北市立聯合醫院和平婦幼院區（婦幼院區）",
            "addr": "臺北市中正區福州街12號1樓"
        },
        "geometry": {
            "type": "Point",
            "coordinates": [
                121.519344,
                25.02907
            ]
        }
    },
    {
        "type": "Feature",
        "properties": {
            "name": "臺北市立聯合醫院和平婦幼院區（婦幼院區）",
            "addr": "臺北市中正區福州街12號1樓"
        },
        "geometry": {
            "type": "Point",
            "coordinates": [
                121.519344,
                25.02907
            ]
        }
    },
    {
        "type": "Feature",
        "properties": {
            "name": "國立台灣大學醫學院附設醫院",
            "addr": "臺北市中正區中山南路8號"
        },
        "geometry": {
            "type": "Point",
            "coordinates": [
                121.518491,
                25.044215
            ]
        }
    },
    {
        "type": "Feature",
        "properties": {
            "name": "三軍總醫院附設民眾診療服務處汀州院區",
            "addr": "臺北市中正區汀州路3段40號"
        },
        "geometry": {
            "type": "Point",
            "coordinates": [
                121.525625,
                25.020896
            ]
        }
    },
    {
        "type": "Feature",
        "properties": {
            "name": "臺灣銀行股份有限公司",
            "addr": "臺北市中正區重慶南路1段120號"
        },
        "geometry": {
            "type": "Point",
            "coordinates": [
                121.513412,
                25.046765
            ]
        }
    },
    {
        "type": "Feature",
        "properties": {
            "name": "交通部臺灣鐵路管理局台北運務段臺北站",
            "addr": "臺北市中正區北平西路3號"
        },
        "geometry": {
            "type": "Point",
            "coordinates": [
                121.516969,
                25.047885
            ]
        }
    },
    {
        "type": "Feature",
        "properties": {
            "name": "交通部臺灣鐵路管理局台北運務段臺北站",
            "addr": "臺北市中正區北平西路3號"
        },
        "geometry": {
            "type": "Point",
            "coordinates": [
                121.516969,
                25.047885
            ]
        }
    },
    {
        "type": "Feature",
        "properties": {
            "name": "台灣高速鐵路股份有限公司台北車站",
            "addr": "臺北市中正區北平西路3號"
        },
        "geometry": {
            "type": "Point",
            "coordinates": [
                121.516969,
                25.047885
            ]
        }
    },
    {
        "type": "Feature",
        "properties": {
            "name": "臺北大眾捷運股份有限公司臺北車站",
            "addr": "臺北市中正區忠孝西路1段49號"
        },
        "geometry": {
            "type": "Point",
            "coordinates": [
                121.519343,
                25.046014
            ]
        }
    },
    {
        "type": "Feature",
        "properties": {
            "name": "新光三越百貨股份有限公司台北站前分公司",
            "addr": "臺北市中正區忠孝西路1段66號"
        },
        "geometry": {
            "type": "Point",
            "coordinates": [
                121.519343,
                25.046014
            ]
        }
    },
    {
        "type": "Feature",
        "properties": {
            "name": "遠東百貨股份有限公司台北分司",
            "addr": "臺北市中正區寶慶路32號"
        },
        "geometry": {
            "type": "Point",
            "coordinates": [
                121.509036,
                25.041614
            ]
        }
    },
    {
        "type": "Feature",
        "properties": {
            "name": "台北天成大飯店",
            "addr": "臺北市中正區忠孝西路1段43號17樓"
        },
        "geometry": {
            "type": "Point",
            "coordinates": [
                121.519343,
                25.046014
            ]
        }
    },
    {
        "type": "Feature",
        "properties": {
            "name": "台灣電力股份有限公司",
            "addr": "臺北市中正區羅斯福路3段242號"
        },
        "geometry": {
            "type": "Point",
            "coordinates": [
                121.532246,
                25.015812
            ]
        }
    },
    {
        "type": "Feature",
        "properties": {
            "name": "台灣電力股份有限公司",
            "addr": "臺北市中正區羅斯福路3段242號"
        },
        "geometry": {
            "type": "Point",
            "coordinates": [
                121.532246,
                25.015812
            ]
        }
    },
    {
        "type": "Feature",
        "properties": {
            "name": "臺灣銀行館前分行",
            "addr": "臺北市中正區館前路49號"
        },
        "geometry": {
            "type": "Point",
            "coordinates": [
                121.515332,
                25.044962
            ]
        }
    },
    {
        "type": "Feature",
        "properties": {
            "name": "華山1914文創園區",
            "addr": "臺北市中正區八德路1段1號"
        },
        "geometry": {
            "type": "Point",
            "coordinates": [
                121.528878,
                25.043747
            ]
        }
    },
    {
        "type": "Feature",
        "properties": {
            "name": "華山1914文創園區",
            "addr": "臺北市中正區八德路1段1號"
        },
        "geometry": {
            "type": "Point",
            "coordinates": [
                121.528878,
                25.043747
            ]
        }
    },
    {
        "type": "Feature",
        "properties": {
            "name": "臺北大眾捷運股份有限公司西門站",
            "addr": "臺北市中正區寶慶路32之1號地下1樓"
        },
        "geometry": {
            "type": "Point",
            "coordinates": [
                121.509036,
                25.041614
            ]
        }
    },
    {
        "type": "Feature",
        "properties": {
            "name": "微風場站開發股份有限公司",
            "addr": "臺北市中正區北平西路3號 "
        },
        "geometry": {
            "type": "Point",
            "coordinates": [
                121.516969,
                25.047885
            ]
        }
    },
    {
        "type": "Feature",
        "properties": {
            "name": "國立台灣大學醫學院附設醫院",
            "addr": "臺北市中正區中山南路7號"
        },
        "geometry": {
            "type": "Point",
            "coordinates": [
                121.51916,
                25.040274
            ]
        }
    },
    {
        "type": "Feature",
        "properties": {
            "name": "喜來登飯店",
            "addr": "臺北市中正區忠孝東路1段12號"
        },
        "geometry": {
            "type": "Point",
            "coordinates": [
                121.520933,
                25.046271
            ]
        }
    },
    {
        "type": "Feature",
        "properties": {
            "name": "臺北市立圖書館王貫英紀念館",
            "addr": "臺北市中正區汀州路2段265號"
        },
        "geometry": {
            "type": "Point",
            "coordinates": [
                121.524856,
                25.019761
            ]
        }
    },
    {
        "type": "Feature",
        "properties": {
            "name": "臺北市客家文化主題公園",
            "addr": "臺北市中正區汀州路3段2號"
        },
        "geometry": {
            "type": "Point",
            "coordinates": [
                121.525625,
                25.020896
            ]
        }
    },
    {
        "type": "Feature",
        "properties": {
            "name": "臺灣土地銀行營業部",
            "addr": "臺北市中正區館前路46號"
        },
        "geometry": {
            "type": "Point",
            "coordinates": [
                121.514783,
                25.044068
            ]
        }
    },
    {
        "type": "Feature",
        "properties": {
            "name": "中華郵政股份有限公司臺北北門郵局",
            "addr": "臺北市中正區博愛路1號"
        },
        "geometry": {
            "type": "Point",
            "coordinates": [
                121.514386,
                25.036977
            ]
        }
    },
    {
        "type": "Feature",
        "properties": {
            "name": "臺北大眾捷運股份有限公司中正紀念堂站",
            "addr": "臺北市中正區羅斯福路1段8之1號地下2樓"
        },
        "geometry": {
            "type": "Point",
            "coordinates": [
                121.532383,
                25.015692
            ]
        }
    },
    {
        "type": "Feature",
        "properties": {
            "name": "臺北大眾捷運股份有限公司古亭站",
            "addr": "臺北市中正區羅斯福路2段164之1號地下1樓"
        },
        "geometry": {
            "type": "Point",
            "coordinates": [
                121.532735,
                25.015969
            ]
        }
    },
    {
        "type": "Feature",
        "properties": {
            "name": "臺北自來水事業處臺北自來水園區",
            "addr": "臺北市中正區思源街1號"
        },
        "geometry": {
            "type": "Point",
            "coordinates": [
                121.531732,
                25.014118
            ]
        }
    },
    {
        "type": "Feature",
        "properties": {
            "name": "臺北自來水事業處臺北自來水園區",
            "addr": "臺北市中正區思源街1號"
        },
        "geometry": {
            "type": "Point",
            "coordinates": [
                121.531732,
                25.014118
            ]
        }
    },
    {
        "type": "Feature",
        "properties": {
            "name": "臺北市中正運動中心",
            "addr": "臺北市中正區信義路1段1號"
        },
        "geometry": {
            "type": "Point",
            "coordinates": [
                121.519298,
                25.038524
            ]
        }
    },
    {
        "type": "Feature",
        "properties": {
            "name": "臺北市立圖書館城中分館",
            "addr": "臺北市中正區濟南路2段46號"
        },
        "geometry": {
            "type": "Point",
            "coordinates": [
                121.51967,
                25.04296
            ]
        }
    },
    {
        "type": "Feature",
        "properties": {
            "name": "臺灣臺北地方法院",
            "addr": "臺北市中正區博愛路131號"
        },
        "geometry": {
            "type": "Point",
            "coordinates": [
                121.51157,
                25.036665
            ]
        }
    },
    {
        "type": "Feature",
        "properties": {
            "name": "臺灣臺北地方法院檢察署",
            "addr": "臺北市中正區博愛路131號"
        },
        "geometry": {
            "type": "Point",
            "coordinates": [
                121.51157,
                25.036665
            ]
        }
    },
    {
        "type": "Feature",
        "properties": {
            "name": "中華郵政股份有限公司郵政博物館",
            "addr": "臺北市中正區重慶南路2段45號4樓"
        },
        "geometry": {
            "type": "Point",
            "coordinates": [
                121.515163,
                25.029563
            ]
        }
    },
    {
        "type": "Feature",
        "properties": {
            "name": "臺北市中山堂管理所",
            "addr": "臺北市中正區延平南路98號1樓"
        },
        "geometry": {
            "type": "Point",
            "coordinates": [
                121.509478,
                25.043334
            ]
        }
    },
    {
        "type": "Feature",
        "properties": {
            "name": "臺北市政府文化局所屬台北二二八紀念館",
            "addr": "臺北市中正區凱達格蘭大道3號"
        },
        "geometry": {
            "type": "Point",
            "coordinates": [
                121.515562,
                25.040408
            ]
        }
    },
    {
        "type": "Feature",
        "properties": {
            "name": "臺北市站前地下街場地利用合作社",
            "addr": "臺北市中正區忠孝西路1段50之1號地下1樓"
        },
        "geometry": {
            "type": "Point",
            "coordinates": [
                121.519343,
                25.046014
            ]
        }
    },
    {
        "type": "Feature",
        "properties": {
            "name": "臺北市台北地下街場地利用合作社1",
            "addr": "臺北市中正區市民大道1段100號地下1樓"
        },
        "geometry": {
            "type": "Point",
            "coordinates": [
                121.518267,
                25.032361
            ]
        }
    },
    {
        "type": "Feature",
        "properties": {
            "name": "臺北市台北地下街場地利用合作社2",
            "addr": "臺北市中正區市民大道1段100號地下1樓"
        },
        "geometry": {
            "type": "Point",
            "coordinates": [
                121.518267,
                25.032361
            ]
        }
    },
    {
        "type": "Feature",
        "properties": {
            "name": "立法院中興大樓（研究會館）",
            "addr": "臺北市中正區濟南路1段3之1號"
        },
        "geometry": {
            "type": "Point",
            "coordinates": [
                121.519976,
                25.04327
            ]
        }
    },
    {
        "type": "Feature",
        "properties": {
            "name": "國家表演藝術中心國家兩院廳（國家音樂廳）",
            "addr": "臺北市中正區中山南路21之1號"
        },
        "geometry": {
            "type": "Point",
            "coordinates": [
                121.519233,
                25.036982
            ]
        }
    },
    {
        "type": "Feature",
        "properties": {
            "name": "國家表演藝術中心國家兩院廳（國家戲劇院）",
            "addr": "臺北市中正區中山南路21之1號"
        },
        "geometry": {
            "type": "Point",
            "coordinates": [
                121.519233,
                25.036982
            ]
        }
    },
    {
        "type": "Feature",
        "properties": {
            "name": "台北國際藝術村",
            "addr": "臺北市中正區北平東路7號2樓"
        },
        "geometry": {
            "type": "Point",
            "coordinates": [
                121.523729,
                25.046365
            ]
        }
    },
    {
        "type": "Feature",
        "properties": {
            "name": "水源劇場",
            "addr": "臺北市中正區羅斯福路4段92號10樓"
        },
        "geometry": {
            "type": "Point",
            "coordinates": [
                121.517527,
                25.033144
            ]
        }
    },
    {
        "type": "Feature",
        "properties": {
            "name": "臺北市福安兒童服務中心（委託靖娟兒童安全文教基金會）",
            "addr": "臺北市中正區汀州路1段123號"
        },
        "geometry": {
            "type": "Point",
            "coordinates": [
                121.534974,
                25.013533
            ]
        }
    },
    {
        "type": "Feature",
        "properties": {
            "name": "光華商場發展協會",
            "addr": "臺北市中正區市民大道3段8號1樓"
        },
        "geometry": {
            "type": "Point",
            "coordinates": [
                121.531154,
                25.04583
            ]
        }
    },
    {
        "type": "Feature",
        "properties": {
            "name": "經濟部礦務局",
            "addr": "臺北市中正區中華路1段53號"
        },
        "geometry": {
            "type": "Point",
            "coordinates": [
                121.5391845,
                24.9691247
            ]
        }
    },
    {
        "type": "Feature",
        "properties": {
            "name": "國立台灣博物館南門園區",
            "addr": "臺北市中正區南昌路1段1號"
        },
        "geometry": {
            "type": "Point",
            "coordinates": [
                121.515996,
                25.033522
            ]
        }
    },
    {
        "type": "Feature",
        "properties": {
            "name": "台北花園大酒店",
            "addr": "臺北市中正區中華路2段1號"
        },
        "geometry": {
            "type": "Point",
            "coordinates": [
                121.5391845,
                24.9691247
            ]
        }
    },
    {
        "type": "Feature",
        "properties": {
            "name": "臺北市政府警察局交通警察大隊",
            "addr": "臺北市中正區愛國西路26號1樓"
        },
        "geometry": {
            "type": "Point",
            "coordinates": [
                121.511141,
                25.035083
            ]
        }
    },
    {
        "type": "Feature",
        "properties": {
            "name": "臺北青年職涯發展中心",
            "addr": "臺北市中正區仁愛路1段17號2樓"
        },
        "geometry": {
            "type": "Point",
            "coordinates": [
                121.519919,
                25.039451
            ]
        }
    },
    {
        "type": "Feature",
        "properties": {
            "name": "財團法人張榮發基金會",
            "addr": "臺北市中正區中山南路11號"
        },
        "geometry": {
            "type": "Point",
            "coordinates": [
                121.51878,
                25.038665
            ]
        }
    },
    {
        "type": "Feature",
        "properties": {
            "name": "財團法人新匯流文化基金會委託經營辦理臺北市中正親子館",
            "addr": "臺北市中正區仁愛路1段17號3樓"
        },
        "geometry": {
            "type": "Point",
            "coordinates": [
                121.519919,
                25.039451
            ]
        }
    },
    {
        "type": "Feature",
        "properties": {
            "name": "三創數位生活園區",
            "addr": "臺北市中正區市民大道3段2號7樓"
        },
        "geometry": {
            "type": "Point",
            "coordinates": [
                121.531154,
                25.04583
            ]
        }
    },
    {
        "type": "Feature",
        "properties": {
            "name": "行政院農業委員會林務局農林航空測量所",
            "addr": "臺北市中正區和平西路2段100號"
        },
        "geometry": {
            "type": "Point",
            "coordinates": [
                121.518267,
                25.032361
            ]
        }
    },
    {
        "type": "Feature",
        "properties": {
            "name": "信誼小太陽親子館",
            "addr": "臺北市中正區重慶南路2段51號1樓"
        },
        "geometry": {
            "type": "Point",
            "coordinates": [
                121.515163,
                25.029563
            ]
        }
    },
    {
        "type": "Feature",
        "properties": {
            "name": "勞動部",
            "addr": "臺北市中正區館前路77號9樓"
        },
        "geometry": {
            "type": "Point",
            "coordinates": [
                121.515174,
                25.043823
            ]
        }
    },
    {
        "type": "Feature",
        "properties": {
            "name": "臺灣銀行仁愛分行",
            "addr": "臺北市中正區仁愛路2段99號"
        },
        "geometry": {
            "type": "Point",
            "coordinates": [
                121.525242,
                25.038073
            ]
        }
    },
    {
        "type": "Feature",
        "properties": {
            "name": "衛生福利部中央健康保險署臺北業務組",
            "addr": "臺北市中正區公園路15之1號1樓"
        },
        "geometry": {
            "type": "Point",
            "coordinates": [
                121.517434,
                25.045204
            ]
        }
    },
    {
        "type": "Feature",
        "properties": {
            "name": "台北凱撒大飯店",
            "addr": "臺北市中正區忠孝西路1段38號3樓"
        },
        "geometry": {
            "type": "Point",
            "coordinates": [
                121.519343,
                25.046014
            ]
        }
    },
    {
        "type": "Feature",
        "properties": {
            "name": "桃園大眾捷運股份有限公司臺北車站",
            "addr": "臺北市中正區鄭州路8號"
        },
        "geometry": {
            "type": "Point",
            "coordinates": [
                121.514287,
                25.048686
            ]
        }
    },
    {
        "type": "Feature",
        "properties": {
            "name": "臺北大眾捷運股份有限公司公館站",
            "addr": "臺北市中正區羅斯福路4段64之1號"
        },
        "geometry": {
            "type": "Point",
            "coordinates": [
                121.517527,
                25.033144
            ]
        }
    },
    {
        "type": "Feature",
        "properties": {
            "name": "臺北市家庭暴力暨性侵害防治中心委託財團法人現代婦女基金會經營管理同心園台北親子會面中心",
            "addr": "臺北市中正區新生南路1段54巷5弄2號"
        },
        "geometry": {
            "type": "Point",
            "coordinates": [
                121.532775,
                25.042293
            ]
        }
    },
    {
        "type": "Feature",
        "properties": {
            "name": "國立台灣博物館本館",
            "addr": "臺北市中正區襄陽路2號"
        },
        "geometry": {
            "type": "Point",
            "coordinates": [
                121.515015,
                25.042756
            ]
        }
    },
    {
        "type": "Feature",
        "properties": {
            "name": "國立台灣博物館古生物館",
            "addr": "臺北市中正區襄陽路25號"
        },
        "geometry": {
            "type": "Point",
            "coordinates": [
                121.51439,
                25.043632
            ]
        }
    },
    {
        "type": "Feature",
        "properties": {
            "name": "國家攝影文化中心（大阪商船株式會社台北支店舊址）",
            "addr": "臺北市中正區忠孝西路1段70號"
        },
        "geometry": {
            "type": "Point",
            "coordinates": [
                121.519343,
                25.046014
            ]
        }
    },
    {
        "type": "Feature",
        "properties": {
            "name": "二二八國家紀念館",
            "addr": "臺北市中正區南海路54號"
        },
        "geometry": {
            "type": "Point",
            "coordinates": [
                121.513898,
                25.031405
            ]
        }
    },
    {
        "type": "Feature",
        "properties": {
            "name": "臺北市青少年發展暨家庭教育中心",
            "addr": "臺北市中正區仁愛路1段17號"
        },
        "geometry": {
            "type": "Point",
            "coordinates": [
                121.519919,
                25.039451
            ]
        }
    },
    {
        "type": "Feature",
        "properties": {
            "name": "中央健康保險署臺北業務組",
            "addr": "臺北市中正區公園路15之1號"
        },
        "geometry": {
            "type": "Point",
            "coordinates": [
                121.517434,
                25.045204
            ]
        }
    },
    {
        "type": "Feature",
        "properties": {
            "name": "中央健康保險署臺北業務組",
            "addr": "臺北市中正區公園路15之1號"
        },
        "geometry": {
            "type": "Point",
            "coordinates": [
                121.517434,
                25.045204
            ]
        }
    },
    {
        "type": "Feature",
        "properties": {
            "name": "臺北市大同區健康服務中心",
            "addr": "臺北市大同區昌吉街52號"
        },
        "geometry": {
            "type": "Point",
            "coordinates": [
                121.517127,
                25.065881
            ]
        }
    },
    {
        "type": "Feature",
        "properties": {
            "name": "臺北市立聯合醫院中興院區/門診",
            "addr": "臺北市大同區鄭州路145號"
        },
        "geometry": {
            "type": "Point",
            "coordinates": [
                121.509192,
                25.051317
            ]
        }
    },
    {
        "type": "Feature",
        "properties": {
            "name": "臺北市政府警察局大同分局",
            "addr": "臺北市大同區錦西街200號"
        },
        "geometry": {
            "type": "Point",
            "coordinates": [
                121.51552,
                25.059261
            ]
        }
    },
    {
        "type": "Feature",
        "properties": {
            "name": "臺北市政府工務局衛生下水道工程處",
            "addr": "臺北市大同區酒泉街235號"
        },
        "geometry": {
            "type": "Point",
            "coordinates": [
                121.5120408,
                25.0722052
            ]
        }
    },
    {
        "type": "Feature",
        "properties": {
            "name": "臺北市大同區公所",
            "addr": "臺北市大同區昌吉街57號4樓"
        },
        "geometry": {
            "type": "Point",
            "coordinates": [
                121.517127,
                25.065881
            ]
        }
    },
    {
        "type": "Feature",
        "properties": {
            "name": "財政部關務署",
            "addr": "臺北市大同區塔城街13號"
        },
        "geometry": {
            "type": "Point",
            "coordinates": [
                121.510822,
                25.05128
            ]
        }
    },
    {
        "type": "Feature",
        "properties": {
            "name": "臺北市孔廟管理委員會",
            "addr": "臺北市大同區大龍街275號"
        },
        "geometry": {
            "type": "Point",
            "coordinates": [
                121.5159,
                25.070812
            ]
        }
    },
    {
        "type": "Feature",
        "properties": {
            "name": "家福股份有限公司重慶分公司",
            "addr": "臺北市大同區重慶北路2段171號"
        },
        "geometry": {
            "type": "Point",
            "coordinates": [
                121.512798,
                25.064132
            ]
        }
    },
    {
        "type": "Feature",
        "properties": {
            "name": "萬達通實業股份有限公司臺北轉運站",
            "addr": "臺北市大同區市民大道1段209號"
        },
        "geometry": {
            "type": "Point",
            "coordinates": [
                121.514399782411,
                25.0492112
            ]
        }
    },
    {
        "type": "Feature",
        "properties": {
            "name": "京站實業股份有限公司",
            "addr": "臺北市大同區承德路1段1號"
        },
        "geometry": {
            "type": "Point",
            "coordinates": [
                121.517843,
                25.048913
            ]
        }
    },
    {
        "type": "Feature",
        "properties": {
            "name": "京站實業股份有限公司",
            "addr": "臺北市大同區承德路1段1號"
        },
        "geometry": {
            "type": "Point",
            "coordinates": [
                121.517843,
                25.048913
            ]
        }
    },
    {
        "type": "Feature",
        "properties": {
            "name": "京站實業股份有限公司",
            "addr": "臺北市大同區承德路1段1號"
        },
        "geometry": {
            "type": "Point",
            "coordinates": [
                121.517843,
                25.048913
            ]
        }
    },
    {
        "type": "Feature",
        "properties": {
            "name": "臺北市藝文推廣處（大稻埕戲苑）",
            "addr": "臺北市大同區迪化街1段21號8樓"
        },
        "geometry": {
            "type": "Point",
            "coordinates": [
                121.510212,
                25.05376
            ]
        }
    },
    {
        "type": "Feature",
        "properties": {
            "name": "臺北市西區單親家庭服務中心",
            "addr": "臺北市大同區迪化街1段21號7樓"
        },
        "geometry": {
            "type": "Point",
            "coordinates": [
                121.510212,
                25.05376
            ]
        }
    },
    {
        "type": "Feature",
        "properties": {
            "name": "臺灣銀行延平分行",
            "addr": "臺北市大同區南京西路406號"
        },
        "geometry": {
            "type": "Point",
            "coordinates": [
                121.509839,
                25.053155
            ]
        }
    },
    {
        "type": "Feature",
        "properties": {
            "name": "臺灣銀行民權分行",
            "addr": "臺北市大同區承德路2段239號"
        },
        "geometry": {
            "type": "Point",
            "coordinates": [
                121.517844,
                25.053438
            ]
        }
    },
    {
        "type": "Feature",
        "properties": {
            "name": "臺北當代藝術館",
            "addr": "臺北市大同區長安西路39號"
        },
        "geometry": {
            "type": "Point",
            "coordinates": [
                121.519044,
                25.05077
            ]
        }
    },
    {
        "type": "Feature",
        "properties": {
            "name": "臺北大眾捷運股份有限公司民權西路站",
            "addr": "臺北市大同區民權西路72號"
        },
        "geometry": {
            "type": "Point",
            "coordinates": [
                121.51654,
                25.061402
            ]
        }
    },
    {
        "type": "Feature",
        "properties": {
            "name": "臺北市立圖書館蘭州民眾閱覽室",
            "addr": "臺北市大同區昌吉街57號4樓之6"
        },
        "geometry": {
            "type": "Point",
            "coordinates": [
                121.517127,
                25.065881
            ]
        }
    },
    {
        "type": "Feature",
        "properties": {
            "name": "臺北市立圖書館延平分館",
            "addr": "臺北市大同區保安街47號5樓"
        },
        "geometry": {
            "type": "Point",
            "coordinates": [
                121.512072,
                25.059221
            ]
        }
    },
    {
        "type": "Feature",
        "properties": {
            "name": "臺北市立圖書館大同分館",
            "addr": "臺北市大同區重慶北路3段318號1樓"
        },
        "geometry": {
            "type": "Point",
            "coordinates": [
                121.513295,
                25.074272
            ]
        }
    },
    {
        "type": "Feature",
        "properties": {
            "name": "臺北市立圖書館建成分館",
            "addr": "臺北市大同區民生西路198之20號4樓"
        },
        "geometry": {
            "type": "Point",
            "coordinates": [
                121.516624,
                25.057009
            ]
        }
    },
    {
        "type": "Feature",
        "properties": {
            "name": "臺北大眾捷運股份有限公司大橋頭站",
            "addr": "臺北市大同區民權西路223號"
        },
        "geometry": {
            "type": "Point",
            "coordinates": [
                121.512694,
                25.063198
            ]
        }
    },
    {
        "type": "Feature",
        "properties": {
            "name": "臺北市政府消防局第四大隊大同中隊大同分隊",
            "addr": "臺北市大同區重慶北路2段223號"
        },
        "geometry": {
            "type": "Point",
            "coordinates": [
                121.512798,
                25.064132
            ]
        }
    },
    {
        "type": "Feature",
        "properties": {
            "name": "臺北市立聯合醫院中興院區兒童發展評估療育中心",
            "addr": "臺北市大同區鄭州路145號"
        },
        "geometry": {
            "type": "Point",
            "coordinates": [
                121.509192,
                25.051317
            ]
        }
    },
    {
        "type": "Feature",
        "properties": {
            "name": "衛生福利部國民健康署",
            "addr": "臺北市大同區塔城街36號"
        },
        "geometry": {
            "type": "Point",
            "coordinates": [
                121.51019,
                25.051646
            ]
        }
    },
    {
        "type": "Feature",
        "properties": {
            "name": "臺北大眾捷運股份有限公司中山站",
            "addr": "臺北市大同區南京西路55號"
        },
        "geometry": {
            "type": "Point",
            "coordinates": [
                121.519409,
                25.053036
            ]
        }
    },
    {
        "type": "Feature",
        "properties": {
            "name": "臺北市大同運動中心",
            "addr": "臺北市大同區大龍街51號"
        },
        "geometry": {
            "type": "Point",
            "coordinates": [
                121.516255,
                25.065707
            ]
        }
    },
    {
        "type": "Feature",
        "properties": {
            "name": "台北君品大酒店",
            "addr": "臺北市大同區承德路1段3號"
        },
        "geometry": {
            "type": "Point",
            "coordinates": [
                121.517843,
                25.048913
            ]
        }
    },
    {
        "type": "Feature",
        "properties": {
            "name": "三德觀光大飯店股份有限公司",
            "addr": "臺北市大同區承德路3段49號"
        },
        "geometry": {
            "type": "Point",
            "coordinates": [
                121.51809,
                25.053633
            ]
        }
    },
    {
        "type": "Feature",
        "properties": {
            "name": "臺北市政府警察局刑事警察大隊",
            "addr": "臺北市大同區重慶北路2段219號"
        },
        "geometry": {
            "type": "Point",
            "coordinates": [
                121.512798,
                25.064132
            ]
        }
    },
    {
        "type": "Feature",
        "properties": {
            "name": "國立臺灣博物館鐵道部園區",
            "addr": "臺北市大同區延平北路1段2號1樓"
        },
        "geometry": {
            "type": "Point",
            "coordinates": [
                121.511671,
                25.055363
            ]
        }
    },
    {
        "type": "Feature",
        "properties": {
            "name": "國立臺灣博物館鐵道部園區（北門）",
            "addr": "臺北市大同區延平北路1段2號1樓"
        },
        "geometry": {
            "type": "Point",
            "coordinates": [
                121.511671,
                25.055363
            ]
        }
    },
    {
        "type": "Feature",
        "properties": {
            "name": "國立臺灣博物館鐵道部園區",
            "addr": "臺北市大同區延平北路1段2號1樓"
        },
        "geometry": {
            "type": "Point",
            "coordinates": [
                121.511671,
                25.055363
            ]
        }
    },
    {
        "type": "Feature",
        "properties": {
            "name": "臺北市萬華區公所",
            "addr": "臺北市萬華區和平西路3段120號12樓"
        },
        "geometry": {
            "type": "Point",
            "coordinates": [
                121.4974795,
                25.0351993
            ]
        }
    },
    {
        "type": "Feature",
        "properties": {
            "name": "臺北市萬華區戶政事務所",
            "addr": "臺北市萬華區和平西路3段120號4樓"
        },
        "geometry": {
            "type": "Point",
            "coordinates": [
                121.4974795,
                25.0351993
            ]
        }
    },
    {
        "type": "Feature",
        "properties": {
            "name": "財政部臺北市國稅局萬華稽徵所",
            "addr": "臺北市萬華區萬大路90巷1號"
        },
        "geometry": {
            "type": "Point",
            "coordinates": [
                121.4994037,
                25.0303478
            ]
        }
    },